City,Country,Latitude,Longitude,Date,Temperature,Maximum Tempurature,Humidity,Cloudiness,Wind Speed
rheinau,DE,48.87,8.2,1585542788.0,33.656000000000006,35.99599999999998,59.0,90.0,13.92
kavieng,PG,-2.57,150.8,1585542788.0,82.00399999999996,82.00399999999996,76.0,96.0,2.9120000000000004
bengkulu,ID,-3.8,102.27,1585542789.0,83.57,83.57,72.0,100.0,7.392
saint anthony,US,45.02,-93.22,1585542790.0,41.37800000000004,44.99599999999998,45.0,1.0,5.760000000000001
west bay,KY,19.37,-81.42,1585542790.0,78.7100000000001,78.99799999999999,94.0,20.0,5.760000000000001
peniche,PT,39.36,-9.38,1585542791.0,51.63799999999998,55.00399999999996,87.0,20.0,2.16
rikitea,PF,-23.12,-134.97,1585542791.0,78.74600000000004,78.74600000000004,83.0,0.0,8.496
busselton,AU,-33.65,115.33,1585542792.0,64.99400000000009,64.99400000000009,63.0,81.0,2.8640000000000003
ushtobe,KZ,45.25,77.98,1585542792.0,49.74799999999999,49.74799999999999,36.0,0.0,9.824
vaini,TO,-21.2,-175.2,1585542792.0,80.34800000000001,80.34800000000001,82.0,85.0,11.344000000000001
nome,US,64.5,-165.41,1585542793.0,12.523999999999944,12.523999999999944,75.0,0.0,3.04
lebu,CL,-37.62,-73.65,1585542793.0,52.43000000000001,52.43000000000001,73.0,11.0,10.912
provideniya,RU,64.38,-173.3,1585542794.0,15.799999999999955,15.799999999999955,72.0,75.0,4.800000000000001
east london,ZA,-33.02,27.91,1585542701.0,69.04400000000004,69.04400000000004,80.0,40.0,2.8160000000000003
nichinan,JP,31.6,131.37,1585542794.0,54.73399999999998,55.39999999999992,93.0,75.0,7.359999999999999
miri,MY,4.41,114.01,1585542795.0,89.31200000000007,89.59999999999997,75.0,75.0,4.16
tekkali,IN,18.62,84.23,1585542795.0,95.21599999999995,95.21599999999995,39.0,0.0,4.048
jinxiang,CN,22.86,115.7,1585542796.0,66.00200000000001,66.00200000000001,92.0,98.0,0.7200000000000001
namibe,AO,-15.2,12.15,1585542796.0,71.906,71.906,75.0,21.0,3.2960000000000003
avarua,CK,-21.21,-159.78,1585542796.0,82.39999999999992,82.39999999999992,74.0,20.0,6.56
beira,MZ,-19.84,34.84,1585542797.0,71.59999999999997,71.59999999999997,94.0,40.0,3.3600000000000003
odweyne,SO,9.41,45.06,1585542797.0,77.594,77.594,45.0,0.0,6.992000000000001
mar del plata,AR,-38.0,-57.56,1585542706.0,64.39999999999992,64.99400000000009,82.0,75.0,7.359999999999999
fortuna,US,40.6,-124.16,1585542688.0,50.95400000000001,51.99799999999999,76.0,75.0,4.960000000000001
sinnamary,GF,5.38,-52.95,1585542798.0,78.88999999999993,78.88999999999993,84.0,100.0,8.512
khandbari,NP,27.37,87.2,1585542798.0,83.714,83.714,14.0,0.0,4.16
georgetown,MY,5.41,100.34,1585542799.0,90.15799999999996,91.39999999999992,70.0,20.0,4.16
hualmay,PE,-11.1,-77.61,1585542799.0,72.08600000000007,72.08600000000007,78.0,100.0,2.9280000000000004
chokurdakh,RU,70.63,147.92,1585542800.0,6.8180000000000405,6.8180000000000405,94.0,100.0,8.384
airai,TL,-8.93,125.41,1585542800.0,72.80599999999998,72.80599999999998,48.0,76.0,3.184
bettiah,IN,26.8,84.5,1585542801.0,93.29000000000002,93.29000000000002,12.0,0.0,11.280000000000001
khatanga,RU,71.97,102.5,1585542801.0,9.01400000000001,9.01400000000001,94.0,95.0,3.84
dorado,PR,18.46,-66.27,1585542801.0,72.96800000000002,76.99999999999994,73.0,40.0,6.56
tuktoyaktuk,CA,69.45,-133.04,1585542802.0,-20.19999999999999,-20.19999999999999,75.0,20.0,4.960000000000001
bluff,NZ,-46.6,168.33,1585542802.0,67.99999999999994,67.99999999999994,66.0,10.0,3.5840000000000005
barrow,US,71.29,-156.79,1585542803.0,-5.800000000000011,-5.800000000000011,76.0,1.0,6.56
atuona,PF,-9.8,-139.03,1585542803.0,83.03000000000003,83.03000000000003,77.0,39.0,13.296000000000001
ushuaia,AR,-54.8,-68.3,1585542803.0,48.19999999999993,48.19999999999993,70.0,75.0,3.8560000000000003
dikson,RU,73.51,80.55,1585542804.0,-3.118000000000052,-3.118000000000052,91.0,51.0,6.976000000000001
saint-philippe,RE,-21.36,55.77,1585542804.0,78.40400000000005,82.39999999999992,69.0,20.0,2.4000000000000004
nikolskoye,RU,59.7,30.79,1585542804.0,21.02000000000004,24.99799999999999,78.0,0.0,3.2
kodiak,US,57.79,-152.41,1585542805.0,30.199999999999932,30.199999999999932,54.0,90.0,8.16
albany,US,42.6,-73.97,1585542805.0,42.06200000000001,46.00400000000002,100.0,90.0,2.4000000000000004
coquimbo,CL,-29.95,-71.34,1585542806.0,60.80000000000001,60.80000000000001,82.0,82.0,0.8
hithadhoo,MV,-0.6,73.08,1585542777.0,83.89400000000006,83.89400000000006,62.0,65.0,6.5120000000000005
san alberto,CO,7.76,-73.39,1585542806.0,79.10599999999994,79.10599999999994,64.0,66.0,1.4880000000000002
vestmanna,FO,62.16,-7.17,1585542807.0,42.799999999999955,42.799999999999955,87.0,65.0,8.16
hilo,US,19.73,-155.09,1585542729.0,66.81200000000007,71.59999999999997,83.0,90.0,4.16
poltavka,RU,54.37,71.76,1585542807.0,32.702000000000055,32.702000000000055,90.0,26.0,7.344
pitimbu,BR,-7.47,-34.81,1585542808.0,76.99999999999994,76.99999999999994,100.0,40.0,4.16
bonavista,CA,48.65,-53.11,1585542808.0,28.562000000000012,28.562000000000012,98.0,100.0,21.872
norman wells,CA,65.28,-126.83,1585542809.0,-18.399999999999977,-18.399999999999977,75.0,20.0,0.768
los llanos de aridane,ES,28.66,-17.92,1585542809.0,64.39999999999992,64.39999999999992,68.0,90.0,4.16
nara,JP,34.69,135.8,1585542810.0,54.410000000000025,57.00200000000001,71.0,75.0,1.6
khurba,RU,50.41,136.88,1585542810.0,41.072,41.072,70.0,32.0,2.4960000000000004
san cristobal,VE,7.77,-72.22,1585542810.0,69.38600000000002,69.38600000000002,55.0,90.0,0.35200000000000004
manado,ID,1.49,124.85,1585542811.0,87.80000000000001,87.80000000000001,66.0,40.0,2.4000000000000004
saint-louis,SN,16.33,-15.0,1585542811.0,78.80000000000001,78.80000000000001,39.0,20.0,1.6
haines junction,CA,60.75,-137.51,1585542811.0,-2.848000000000013,-2.848000000000013,75.0,79.0,6.224
vredendal,ZA,-31.67,18.5,1585542812.0,62.88799999999998,62.88799999999998,60.0,0.0,1.2800000000000002
saskylakh,RU,71.92,114.08,1585542812.0,-5.386000000000024,-5.386000000000024,88.0,26.0,3.232
boyolangu,ID,-8.12,111.89,1585542812.0,86.32400000000001,86.32400000000001,68.0,48.0,5.5360000000000005
hermanus,ZA,-34.42,19.23,1585542813.0,55.00399999999996,55.00399999999996,82.0,1.0,0.7200000000000001
lompoc,US,34.64,-120.46,1585542637.0,51.04400000000004,53.599999999999966,87.0,1.0,2.4000000000000004
jamestown,US,42.1,-79.24,1585542813.0,48.686000000000035,51.799999999999955,87.0,90.0,9.920000000000002
qaanaaq,GL,77.48,-69.36,1585542814.0,-9.256000000000029,-9.256000000000029,83.0,37.0,2.5920000000000005
huamachuco,PE,-7.8,-78.07,1585542814.0,49.136000000000024,49.136000000000024,37.0,100.0,2.5120000000000005
canutama,BR,-6.53,-64.38,1585542814.0,74.24600000000004,74.24600000000004,96.0,97.0,1.1039999999999999
rawlins,US,41.79,-107.24,1585542815.0,33.152000000000044,33.799999999999955,69.0,20.0,4.16
xapuri,BR,-10.65,-68.5,1585542815.0,72.464,72.464,89.0,100.0,1.504
butaritari,KI,3.07,172.79,1585542815.0,82.84999999999997,82.84999999999997,79.0,85.0,10.208
inhambane,MZ,-23.86,35.38,1585542816.0,67.99999999999994,67.99999999999994,94.0,40.0,5.392
sao joao da barra,BR,-21.64,-41.05,1585542816.0,73.27399999999994,73.27399999999994,87.0,87.0,4.512
morondava,MG,-20.28,44.28,1585542816.0,79.43,79.43,67.0,0.0,4.928000000000001
auki,SB,-8.77,160.7,1585542817.0,81.89600000000002,81.89600000000002,77.0,93.0,4.304
half moon bay,US,37.46,-122.43,1585542585.0,53.20400000000001,57.19999999999999,87.0,90.0,7.359999999999999
mujiayingzi,CN,42.12,118.78,1585542818.0,60.29599999999999,60.29599999999999,23.0,12.0,11.472000000000001
gualeguay,AR,-33.14,-59.31,1585542818.0,73.45400000000001,73.45400000000001,70.0,85.0,2.176
neuquen,AR,-38.95,-68.06,1585542818.0,60.80000000000001,60.80000000000001,63.0,19.0,5.2
kattivakkam,IN,13.22,80.32,1585542819.0,86.27000000000004,87.80000000000001,58.0,20.0,4.16
husavik,IS,66.04,-17.34,1585542819.0,42.799999999999955,42.799999999999955,60.0,20.0,27.200000000000003
puerto ayora,EC,-0.74,-90.35,1585542666.0,78.99799999999999,78.99799999999999,85.0,49.0,2.144
bida,NG,9.08,6.02,1585542820.0,82.45400000000001,82.45400000000001,68.0,97.0,3.2159999999999997
korla,CN,41.76,86.15,1585542820.0,53.599999999999966,53.599999999999966,25.0,30.0,6.032
camocim,BR,-2.9,-40.84,1585542820.0,76.38799999999998,76.38799999999998,90.0,54.0,3.632
ketchikan,US,55.34,-131.65,1585542821.0,42.097999999999956,42.799999999999955,70.0,90.0,14.880000000000003
cambridge,CA,43.36,-80.31,1585542671.0,47.372000000000014,51.00799999999998,81.0,90.0,10.72
ramgarh,IN,23.63,85.52,1585542821.0,76.99999999999994,76.99999999999994,41.0,75.0,4.16
soyo,AO,-6.13,12.37,1585542822.0,79.988,79.988,88.0,98.0,4.736
kununurra,AU,-15.77,128.73,1585542822.0,100.39999999999992,100.39999999999992,22.0,54.0,4.16
lohja,FI,60.25,24.07,1585542549.0,25.807999999999936,28.00400000000002,73.0,100.0,1.6
narsaq,GL,60.92,-46.05,1585542823.0,31.999999999999943,31.999999999999943,91.0,100.0,4.768
kaitangata,NZ,-46.28,169.85,1585542823.0,58.315999999999974,58.99999999999994,83.0,68.0,12.16
bredasdorp,ZA,-34.53,20.04,1585542824.0,48.19999999999993,48.19999999999993,93.0,2.0,1.6
fukue,JP,32.69,128.84,1585542824.0,55.39999999999992,55.39999999999992,62.0,75.0,7.359999999999999
vostok,RU,46.49,135.88,1585542824.0,42.799999999999955,42.799999999999955,49.0,36.0,7.5840000000000005
chegdomyn,RU,51.12,133.02,1585542724.0,41.57600000000002,41.57600000000002,55.0,49.0,4.176
mamakan,RU,57.82,114.0,1585542825.0,29.822000000000003,29.822000000000003,85.0,100.0,11.440000000000001
darovskoy,RU,58.77,47.96,1585542825.0,33.36800000000005,33.36800000000005,88.0,100.0,4.176
broome,US,42.25,-75.83,1585542826.0,47.76800000000003,49.99999999999994,87.0,90.0,3.3600000000000003
mataura,NZ,-46.19,168.86,1585542826.0,67.99999999999994,67.99999999999994,66.0,8.0,3.5840000000000005
tricase,IT,39.93,18.36,1585542826.0,42.799999999999955,42.799999999999955,93.0,75.0,7.472
komsomolskiy,UZ,40.43,71.72,1585542827.0,58.99999999999994,58.99999999999994,44.0,100.0,1.6
esperance,AU,-33.87,121.9,1585542827.0,73.39999999999992,73.39999999999992,40.0,75.0,8.16
kota bahru,MY,6.13,102.24,1585542828.0,89.45599999999996,89.59999999999997,55.0,20.0,3.3600000000000003
oga,IT,46.46,10.35,1585542828.0,27.338000000000022,30.199999999999932,92.0,90.0,9.920000000000002
mabaruma,GY,8.2,-59.78,1585542828.0,74.89400000000006,74.89400000000006,86.0,95.0,4.08
biak,ID,-0.91,122.88,1585542829.0,84.03799999999995,84.03799999999995,64.0,70.0,2.304
punta arenas,CL,-53.15,-70.92,1585542829.0,46.202000000000055,46.39999999999998,81.0,75.0,11.520000000000001
araguacu,BR,-12.93,-49.83,1585542830.0,72.58999999999997,72.58999999999997,85.0,84.0,2.4960000000000004
kurumkan,RU,54.3,110.3,1585542830.0,28.831999999999994,28.831999999999994,75.0,79.0,5.776
maceio,BR,-9.67,-35.74,1585542606.0,73.39999999999992,73.39999999999992,100.0,87.0,1.6
karratha,AU,-20.74,116.85,1585542831.0,97.52000000000004,97.52000000000004,27.0,0.0,5.904
vila velha,BR,-20.33,-40.29,1585542544.0,73.20200000000006,73.39999999999992,94.0,40.0,1.6
nouadhibou,MR,20.93,-17.03,1585542832.0,62.599999999999966,62.599999999999966,77.0,78.0,10.72
mafinga,TZ,-7.25,35.07,1585542832.0,68.89999999999992,68.89999999999992,70.0,93.0,0.22400000000000003
viedma,AR,-40.81,-63.0,1585542833.0,56.38999999999993,56.38999999999993,62.0,0.0,5.104
mahebourg,MU,-20.41,57.7,1585542833.0,82.63399999999996,82.99400000000009,83.0,40.0,6.56
buraydah,SA,26.33,43.98,1585542663.0,58.99999999999994,58.99999999999994,72.0,20.0,4.16
arraial do cabo,BR,-22.97,-42.03,1585542834.0,73.63399999999996,73.63399999999996,91.0,100.0,5.44
pasni,PK,25.26,63.47,1585542834.0,77.79199999999997,77.79199999999997,48.0,58.0,1.8239999999999998
tupancireta,BR,-29.08,-53.84,1585542835.0,66.00200000000001,66.00200000000001,79.0,16.0,1.36
anadyr,RU,64.75,177.48,1585542835.0,13.999999999999943,13.999999999999943,85.0,90.0,33.6
solothurn,CH,47.21,7.54,1585542835.0,34.412000000000035,37.39999999999998,74.0,75.0,12.32
saldanha,ZA,-33.01,17.94,1585542836.0,48.19999999999993,48.19999999999993,87.0,0.0,2.4000000000000004
iqaluit,CA,63.75,-68.51,1585542836.0,19.202000000000055,19.399999999999977,79.0,90.0,21.44
tasiilaq,GL,65.61,-37.64,1585542836.0,37.39999999999998,37.39999999999998,93.0,100.0,13.92
walvis bay,NA,-22.96,14.51,1585542837.0,62.00600000000003,62.00600000000003,89.0,75.0,1.4240000000000002
waipawa,NZ,-41.41,175.52,1585542837.0,63.94999999999999,66.19999999999999,63.0,100.0,4.16
rio muerto,MX,27.42,-110.23,1585542837.0,65.82199999999995,65.82199999999995,39.0,89.0,6.032
hambantota,LK,6.12,81.12,1585542838.0,87.80000000000001,87.80000000000001,70.0,40.0,4.960000000000001
ust-tarka,RU,55.57,75.7,1585542838.0,31.56800000000004,31.56800000000004,95.0,85.0,10.848
khash,IR,28.22,61.22,1585542838.0,56.372000000000014,56.372000000000014,40.0,99.0,15.12
new norfolk,AU,-42.78,147.06,1585542839.0,58.38799999999998,64.39999999999992,52.0,75.0,8.16
tarakan,ID,3.3,117.63,1585542839.0,84.16400000000004,84.16400000000004,72.0,91.0,4.32
bandarbeyla,SO,9.49,50.81,1585542839.0,81.68,81.68,66.0,48.0,3.968
luderitz,NA,-26.65,15.16,1585542840.0,63.06800000000004,63.06800000000004,70.0,0.0,8.048
longyearbyen,SJ,78.22,15.64,1585542840.0,1.3999999999999773,1.3999999999999773,70.0,55.0,2.4000000000000004
kurmanayevka,RU,52.51,52.07,1585542840.0,46.92199999999997,46.92199999999997,57.0,91.0,8.912
adrar,MR,20.5,-10.07,1585542841.0,64.50799999999998,64.50799999999998,24.0,34.0,5.5040000000000004
torbay,CA,47.67,-52.73,1585542841.0,29.22800000000001,30.991999999999962,92.0,90.0,19.680000000000003
kindu,CD,-2.95,25.95,1585542842.0,73.79599999999999,73.79599999999999,71.0,89.0,1.6320000000000001
brigantine,US,39.41,-74.36,1585542842.0,48.47000000000003,51.799999999999955,93.0,90.0,5.760000000000001
peleduy,RU,59.63,112.74,1585542842.0,28.057999999999936,28.057999999999936,91.0,100.0,9.408
quatre cocos,MU,-20.21,57.76,1585542843.0,82.70599999999996,82.99400000000009,83.0,40.0,6.56
mogadishu,SO,2.04,45.34,1585542644.0,84.19999999999999,84.19999999999999,70.0,40.0,7.359999999999999
hobart,AU,-42.88,147.33,1585542803.0,58.81999999999999,64.39999999999992,52.0,75.0,8.16
nizhniy baskunchak,RU,48.22,46.83,1585542844.0,53.34800000000001,53.34800000000001,53.0,0.0,11.76
hofn,IS,64.25,-15.21,1585542844.0,41.48600000000005,41.48600000000005,64.0,72.0,10.240000000000002
qazigund,IN,33.63,75.15,1585542844.0,57.21800000000002,57.21800000000002,22.0,100.0,1.616
cabinda,AO,-5.55,12.2,1585542845.0,80.40199999999999,80.40199999999999,88.0,97.0,5.072
taldan,RU,53.67,124.8,1585542845.0,34.394000000000005,34.394000000000005,68.0,90.0,7.231999999999999
awassa,ET,7.05,38.47,1585542845.0,71.92399999999992,71.92399999999992,35.0,1.0,0.944
tessalit,ML,20.2,1.01,1585542846.0,67.80200000000008,67.80200000000008,18.0,29.0,6.288
bonthe,SL,7.53,-12.51,1585542846.0,80.32999999999998,80.32999999999998,85.0,95.0,4.016
harper,LR,4.38,-7.72,1585542639.0,79.07,79.07,87.0,37.0,2.4640000000000004
salalah,OM,17.02,54.09,1585542847.0,80.59999999999997,80.59999999999997,83.0,75.0,11.520000000000001
clyde river,CA,70.47,-68.59,1585542847.0,-9.399999999999977,-9.399999999999977,83.0,75.0,8.16
yining,CN,29.04,114.56,1585542848.0,54.66199999999998,54.66199999999998,66.0,95.0,0.576
la baneza,ES,42.3,-5.9,1585542848.0,32.539999999999964,37.39999999999998,64.0,90.0,7.359999999999999
bathsheba,BB,13.22,-59.52,1585542848.0,76.99999999999994,76.99999999999994,73.0,40.0,11.520000000000001
ambanja,MG,-13.68,48.45,1585542849.0,76.99999999999994,76.99999999999994,68.0,20.0,1.6
grindavik,IS,63.84,-22.43,1585542849.0,40.136000000000024,40.99999999999994,93.0,90.0,12.32
cape town,ZA,-33.93,18.42,1585542439.0,55.670000000000016,57.991999999999905,93.0,0.0,4.16
araguaina,BR,-7.19,-48.21,1585542850.0,74.38999999999993,74.38999999999993,86.0,58.0,2.8160000000000003
cherskiy,RU,68.75,161.3,1585542783.0,23.341999999999928,23.341999999999928,95.0,100.0,10.56
batsfjord,NO,70.63,29.72,1585542850.0,15.799999999999955,15.799999999999955,72.0,20.0,12.32
samfya,ZM,-11.36,29.56,1585542850.0,66.38000000000005,66.38000000000005,64.0,33.0,4.176
barreirinhas,BR,-2.75,-42.83,1585542851.0,79.23200000000003,79.23200000000003,83.0,27.0,3.8560000000000003
le port,RE,-20.94,55.29,1585542851.0,78.33199999999994,82.39999999999992,94.0,90.0,4.960000000000001
carnarvon,AU,-24.87,113.63,1585542851.0,78.80000000000001,78.80000000000001,57.0,77.0,13.92
san jose,US,37.34,-121.89,1585542580.0,53.65400000000005,57.19999999999999,71.0,75.0,4.960000000000001
port elizabeth,ZA,-33.92,25.57,1585542852.0,55.39999999999992,55.39999999999992,82.0,63.0,1.6
rocha,UY,-34.48,-54.33,1585542852.0,66.52399999999994,66.52399999999994,89.0,15.0,1.92
beringovskiy,RU,63.05,179.32,1585542853.0,26.870000000000005,26.870000000000005,97.0,100.0,28.784
caravelas,BR,-17.71,-39.25,1585542853.0,77.594,77.594,85.0,18.0,2.9600000000000004
saint george,US,37.1,-113.58,1585542684.0,48.56000000000006,53.99600000000004,57.0,75.0,4.16
shelburne,CA,44.08,-80.2,1585542854.0,44.88799999999998,48.19999999999993,100.0,95.0,9.120000000000001
margate,GB,51.38,1.39,1585542854.0,38.714,42.00799999999998,80.0,97.0,6.56
teya,RU,60.38,92.63,1585542855.0,36.103999999999985,36.103999999999985,83.0,100.0,10.096
iskateley,RU,67.68,53.15,1585542855.0,22.676000000000045,22.676000000000045,93.0,100.0,17.504
fairbanks,US,64.84,-147.72,1585542855.0,11.623999999999967,13.999999999999943,36.0,1.0,4.16
ampanihy,MG,-24.7,44.75,1585542856.0,76.72999999999996,76.72999999999996,67.0,30.0,5.616
ashington,GB,50.93,-0.39,1585542856.0,36.176000000000045,37.99400000000003,74.0,19.0,6.56
aklavik,CA,68.22,-135.01,1585542856.0,-7.600000000000023,-7.600000000000023,57.0,5.0,3.3600000000000003
tuatapere,NZ,-46.13,167.68,1585542857.0,67.99999999999994,67.99999999999994,66.0,0.0,3.5840000000000005
finschhafen,PG,-6.6,147.87,1585542857.0,85.06400000000002,85.06400000000002,70.0,87.0,2.32
sao filipe,CV,14.9,-24.5,1585542857.0,71.65400000000005,71.65400000000005,79.0,86.0,3.7119999999999997
ribeira grande,PT,38.52,-28.7,1585542858.0,58.63999999999993,58.63999999999993,78.0,97.0,10.688
katy,US,29.79,-95.82,1585542772.0,70.50200000000001,73.99400000000009,52.0,90.0,4.16
san patricio,MX,19.22,-104.7,1585542858.0,74.17399999999992,74.17399999999992,69.0,0.0,1.8079999999999998
ostrovnoy,RU,68.05,39.51,1585542859.0,22.262,22.262,95.0,98.0,16.752000000000002
gueugnon,FR,46.6,4.06,1585542859.0,37.48999999999995,39.19999999999993,69.0,90.0,12.32
zhigansk,RU,66.77,123.37,1585542859.0,13.910000000000025,13.910000000000025,93.0,100.0,3.7920000000000003
port alfred,ZA,-33.59,26.89,1585542860.0,60.99799999999999,60.99799999999999,97.0,43.0,3.232
oranjemund,NA,-28.55,16.43,1585542860.0,59.702000000000055,59.702000000000055,85.0,1.0,2.656
roma,US,43.21,-75.46,1585542725.0,48.289999999999964,51.99799999999999,87.0,90.0,3.184
meulaboh,ID,4.14,96.13,1585542861.0,82.61599999999993,82.61599999999993,79.0,91.0,6.816
alexandria,EG,31.22,29.96,1585542449.0,54.01399999999995,55.39999999999992,66.0,13.0,1.6
olafsvik,IS,64.89,-23.71,1585542862.0,41.01800000000003,41.01800000000003,87.0,100.0,14.768
biloela,AU,-24.42,150.5,1585542862.0,85.04599999999999,85.04599999999999,38.0,38.0,1.568
hirara,JP,24.8,125.28,1585542863.0,77.738,78.80000000000001,61.0,20.0,5.760000000000001
zhaotong,CN,27.32,103.72,1585542863.0,69.45799999999991,69.45799999999991,17.0,16.0,6.48
kapaa,US,22.08,-159.32,1585542863.0,72.10399999999998,73.39999999999992,88.0,90.0,12.32
sorland,NO,67.67,12.69,1585542864.0,30.326000000000022,30.326000000000022,86.0,100.0,6.736000000000001
kpandae,GH,8.47,-0.01,1585542794.0,79.59199999999993,79.59199999999993,71.0,100.0,3.4240000000000004
asau,RO,46.43,26.4,1585542864.0,38.51599999999996,39.99199999999996,69.0,74.0,3.3600000000000003
pakxe,LA,15.12,105.78,1585542865.0,91.39999999999992,91.39999999999992,52.0,20.0,4.960000000000001
pahrump,US,36.21,-115.98,1585542628.0,50.43199999999996,55.994000000000085,76.0,1.0,4.16
yulara,AU,-25.24,130.99,1585542866.0,87.80000000000001,87.80000000000001,25.0,99.0,11.520000000000001
cracow,US,43.74,-82.82,1585542866.0,43.105999999999995,44.599999999999966,87.0,90.0,12.32
diffa,NE,13.32,12.61,1585542866.0,80.09600000000006,80.09600000000006,20.0,43.0,6.5760000000000005
kaeng khoi,TH,14.59,101.0,1585542867.0,97.03399999999993,102.00200000000001,39.0,77.0,7.776000000000001
tromso,NO,69.65,18.96,1585542867.0,21.199999999999932,21.199999999999932,92.0,100.0,16.48
port keats,AU,-14.25,129.55,1585542868.0,89.88799999999998,89.88799999999998,57.0,97.0,5.28
westport,US,41.14,-73.36,1585542763.0,44.99599999999998,48.19999999999993,87.0,90.0,11.520000000000001
njombe,TZ,-9.33,34.77,1585542868.0,62.491999999999905,62.491999999999905,55.0,93.0,2.8160000000000003
baykit,RU,61.67,96.37,1585542725.0,36.139999999999986,36.139999999999986,79.0,100.0,11.408000000000001
klaksvik,FO,62.23,-6.59,1585542869.0,42.799999999999955,42.799999999999955,87.0,44.0,8.16
victoria,HK,22.29,114.16,1585542801.0,67.72999999999996,71.00600000000003,100.0,40.0,9.920000000000002
lahat,ID,-3.8,103.53,1585542870.0,91.52600000000001,91.52600000000001,48.0,95.0,1.92
ballina,AU,-28.87,153.57,1585542870.0,82.56200000000007,84.19999999999999,65.0,65.0,9.120000000000001
banda aceh,ID,5.56,95.32,1585542826.0,86.16199999999998,86.16199999999998,66.0,100.0,3.664
sedhiou,SN,12.71,-15.56,1585542871.0,84.19999999999999,84.19999999999999,37.0,48.0,3.7600000000000002
krasnyy chikoy,RU,50.36,108.75,1585542871.0,32.44999999999993,32.44999999999993,58.0,78.0,7.76
qaqortoq,GL,60.72,-46.03,1585542871.0,31.999999999999943,31.999999999999943,94.0,100.0,9.120000000000001
saint-pierre,RE,-21.34,55.48,1585542872.0,78.9260000000001,82.39999999999992,69.0,20.0,2.4000000000000004
bac lieu,VN,9.29,105.72,1585542604.0,89.27600000000001,89.27600000000001,56.0,65.0,7.376000000000001
goure,NE,13.98,10.27,1585542873.0,85.99999999999994,85.99999999999994,12.0,9.0,6.4319999999999995
maua,BR,-23.67,-46.46,1585542873.0,70.10599999999994,75.9919999999999,88.0,90.0,2.4000000000000004
kaohsiung,TW,22.62,120.31,1585542713.0,83.26399999999995,84.19999999999999,51.0,40.0,6.56
jinxi,CN,30.43,116.29,1585542874.0,54.05000000000001,54.05000000000001,68.0,88.0,4.096
bahia blanca,AR,-38.72,-62.27,1585542874.0,60.11599999999993,60.11599999999993,66.0,31.0,7.856000000000001
sarankhola,BD,22.31,89.79,1585542874.0,98.40199999999999,98.40199999999999,14.0,0.0,6.96
narva-joesuu,EE,59.46,28.04,1585542875.0,31.20799999999997,31.20799999999997,74.0,15.0,6.944
karabash,RU,55.48,60.22,1585542875.0,46.346000000000004,46.346000000000004,65.0,81.0,5.776
stornoway,GB,58.21,-6.39,1585542875.0,44.347999999999956,44.599999999999966,81.0,98.0,9.120000000000001
brae,GB,60.4,-1.35,1585542875.0,44.023999999999944,44.599999999999966,75.0,97.0,13.92
talnakh,RU,69.49,88.4,1585542876.0,21.199999999999932,21.199999999999932,92.0,75.0,8.0
kavaratti,IN,10.57,72.64,1585542876.0,85.99999999999994,85.99999999999994,74.0,20.0,3.3600000000000003
chuy,UY,-33.7,-53.46,1585542877.0,70.01600000000002,70.01600000000002,94.0,0.0,2.624
hasaki,JP,35.73,140.83,1585542877.0,52.178,53.99600000000004,62.0,75.0,9.120000000000001
kamyshin,RU,50.1,45.42,1585542877.0,51.152000000000044,51.152000000000044,55.0,18.0,8.64
linguere,SN,15.4,-15.12,1585542878.0,76.04599999999999,76.04599999999999,25.0,21.0,6.928000000000001
honningsvag,NO,70.98,25.97,1585542878.0,26.041999999999973,26.599999999999966,68.0,75.0,13.92
mercedes,AR,-34.65,-59.43,1585542878.0,69.18800000000005,73.00399999999996,98.0,20.0,4.08
thompson,CA,55.74,-97.86,1585542879.0,10.399999999999977,10.399999999999977,60.0,90.0,5.760000000000001
karatau,KZ,43.17,70.47,1585542879.0,51.656000000000006,51.656000000000006,36.0,0.0,5.952000000000001
koutsouras,GR,35.03,25.95,1585542880.0,55.994000000000085,55.994000000000085,81.0,100.0,4.288
limon,CR,10.0,-83.03,1585542880.0,76.99999999999994,76.99999999999994,91.0,26.0,0.7200000000000001
pavino,RU,59.11,46.14,1585542881.0,27.410000000000025,27.410000000000025,96.0,100.0,8.304
katsuura,JP,35.13,140.3,1585542881.0,50.557999999999936,51.99799999999999,61.0,75.0,4.960000000000001
agua blanca,GT,14.5,-89.65,1585542881.0,65.69599999999997,65.69599999999997,70.0,5.0,3.3280000000000003
semey,KZ,50.41,80.23,1585542695.0,39.19999999999993,39.19999999999993,60.0,0.0,4.800000000000001
hervey bay,AU,-25.3,152.85,1585542882.0,84.93800000000005,84.9919999999999,48.0,40.0,8.16
sao gabriel da cachoeira,BR,-0.13,-67.09,1585542882.0,74.44400000000002,74.44400000000002,95.0,95.0,1.3760000000000001
chibombo,ZM,-14.66,28.07,1585542882.0,67.58600000000007,67.58600000000007,60.0,3.0,5.424
kirkuk,IQ,35.47,44.39,1585542883.0,50.162000000000035,50.162000000000035,72.0,77.0,7.904000000000001
ponta do sol,PT,32.67,-17.1,1585542883.0,58.622000000000014,60.80000000000001,72.0,20.0,3.3600000000000003
dingle,PH,11.0,122.67,1585542884.0,88.52000000000004,88.52000000000004,54.0,56.0,10.064
kruisfontein,ZA,-34.0,24.73,1585542884.0,62.438000000000045,62.438000000000045,66.0,20.0,2.64
cap malheureux,MU,-19.98,57.61,1585542884.0,82.77800000000008,82.99400000000009,83.0,40.0,6.56
cabedelo,BR,-6.98,-34.83,1585542885.0,76.99999999999994,76.99999999999994,100.0,40.0,4.16
hefei,CN,31.86,117.28,1585542885.0,48.19999999999993,48.19999999999993,81.0,90.0,4.800000000000001
senanga,ZM,-16.12,23.27,1585542886.0,69.15199999999999,69.15199999999999,63.0,24.0,4.688000000000001
vielsalm,BE,50.28,5.92,1585542886.0,25.376000000000033,30.00200000000001,67.0,0.0,7.359999999999999
lasa,IT,46.62,10.7,1585542886.0,29.31800000000004,37.99400000000003,92.0,40.0,7.359999999999999
sonoita,MX,31.85,-112.83,1585542887.0,64.00399999999996,64.00399999999996,25.0,10.0,3.184
tiarei,PF,-17.53,-149.33,1585542887.0,85.99999999999994,85.99999999999994,70.0,100.0,4.16
ures,MX,29.43,-110.4,1585542887.0,67.35200000000003,69.99799999999999,25.0,87.0,2.8640000000000003
bud,US,39.45,-86.18,1585542888.0,52.952000000000055,55.39999999999992,40.0,1.0,12.32
kupang,ID,-10.17,123.58,1585542888.0,93.19999999999999,93.19999999999999,56.0,20.0,4.960000000000001
samarai,PG,-10.62,150.67,1585542888.0,82.02199999999999,82.02199999999999,83.0,86.0,5.5520000000000005
balezino,RU,57.98,53.01,1585542889.0,41.01800000000003,41.01800000000003,76.0,100.0,9.008000000000001
paamiut,GL,61.99,-49.67,1585542889.0,26.06000000000006,26.06000000000006,95.0,100.0,7.632
bubaque,GW,11.28,-15.83,1585542889.0,79.62799999999999,79.62799999999999,61.0,47.0,9.152
yellowknife,CA,62.46,-114.35,1585542629.0,-5.8180000000000405,-5.007999999999981,53.0,40.0,4.960000000000001
college,US,64.86,-147.8,1585542890.0,11.533999999999935,13.999999999999943,43.0,20.0,6.56
omboue,GA,-1.57,9.26,1585542890.0,79.55599999999998,79.55599999999998,86.0,77.0,2.304
tiksi,RU,71.69,128.87,1585542891.0,2.0839999999999463,2.0839999999999463,90.0,100.0,4.576
tondano,ID,1.3,124.91,1585542891.0,87.80000000000001,87.80000000000001,66.0,40.0,2.4000000000000004
port alberni,CA,49.24,-124.8,1585542810.0,43.71800000000002,48.99199999999996,65.0,75.0,9.920000000000002
mineros,BO,-17.12,-63.23,1585542892.0,76.99999999999994,76.99999999999994,88.0,75.0,1.6
yaan,NG,7.38,8.57,1585542892.0,79.86200000000002,79.86200000000002,76.0,100.0,4.928000000000001
gouyave,GD,12.16,-61.73,1585542892.0,78.80000000000001,78.80000000000001,74.0,20.0,2.4000000000000004
quevedo,EC,-1.03,-79.45,1585542893.0,75.88399999999996,75.88399999999996,80.0,79.0,1.3760000000000001
southgate,US,42.21,-83.19,1585542893.0,47.048,49.99999999999994,61.0,90.0,8.16
megion,RU,61.03,76.11,1585542893.0,37.39999999999998,37.39999999999998,74.0,100.0,6.4
hays,US,30.05,-98.03,1585542894.0,66.54199999999997,69.00799999999998,68.0,90.0,4.16
kailua,US,21.4,-157.74,1585542856.0,74.74999999999994,78.80000000000001,65.0,40.0,7.359999999999999
geraldton,AU,-28.77,114.6,1585542894.0,76.99999999999994,76.99999999999994,33.0,8.0,10.72
liverpool,GB,53.41,-2.98,1585542731.0,37.25599999999997,42.99799999999999,75.0,20.0,7.359999999999999
dali,CN,25.7,100.18,1585542895.0,78.47600000000006,78.47600000000006,10.0,11.0,12.544
trairi,BR,-3.28,-39.27,1585542895.0,79.39400000000006,79.39400000000006,84.0,99.0,5.664000000000001
keti bandar,PK,24.14,67.45,1585542896.0,86.54000000000002,86.54000000000002,31.0,0.0,3.568
tornio,FI,65.85,24.15,1585542896.0,12.199999999999932,12.199999999999932,72.0,0.0,4.16
weiden,DE,49.68,12.16,1585542896.0,24.72800000000001,30.199999999999932,63.0,1.0,6.5760000000000005
son la,VN,21.32,103.9,1585542780.0,98.51000000000005,98.51000000000005,21.0,15.0,0.032
smithers,CA,54.78,-127.17,1585542672.0,35.599999999999966,35.599999999999966,72.0,90.0,1.6
pontianak,ID,-0.03,109.33,1585542630.0,85.82,85.82,73.0,21.0,5.216
alofi,NU,-19.06,-169.92,1585542665.0,82.39999999999992,82.39999999999992,83.0,2.0,7.359999999999999
kahului,US,20.89,-156.47,1585542898.0,69.17000000000002,73.39999999999992,78.0,20.0,14.880000000000003
aginskoye,RU,51.1,114.53,1585542898.0,36.536,36.536,43.0,46.0,14.16
tupik,RU,54.43,119.93,1585542667.0,28.562000000000012,28.562000000000012,74.0,56.0,8.72
kashi,CN,39.45,75.98,1585542899.0,57.19999999999999,57.19999999999999,12.0,98.0,6.4
santa lucia,ES,27.91,-15.54,1585542899.0,60.386000000000024,60.80000000000001,77.0,40.0,3.3600000000000003
codrington,AU,-38.27,141.97,1585542900.0,65.012,65.012,63.0,100.0,11.184000000000001
karoi,ZW,-16.81,29.69,1585542900.0,65.44400000000002,65.44400000000002,63.0,34.0,5.248
bara,NG,10.37,10.73,1585542900.0,80.4919999999999,80.4919999999999,22.0,82.0,2.272
kapuskasing,CA,49.42,-82.43,1585542901.0,33.799999999999955,33.799999999999955,91.0,90.0,9.120000000000001
santa cruz,BO,-17.8,-63.17,1585542901.0,76.99999999999994,76.99999999999994,88.0,75.0,1.6
siguiri,GN,11.67,-9.5,1585542901.0,78.90799999999996,78.90799999999996,28.0,55.0,0.784
juneau,US,58.3,-134.42,1585542626.0,25.357999999999947,26.599999999999966,35.0,75.0,13.92
fort nelson,CA,58.81,-122.7,1585542902.0,4.999999999999943,4.999999999999943,77.0,90.0,6.56
namanga,KE,-2.54,36.79,1585542902.0,71.58199999999994,71.58199999999994,52.0,47.0,2.112
marsabit,KE,2.33,37.99,1585542902.0,73.29199999999997,73.29199999999997,51.0,100.0,11.040000000000001
chaman,PK,30.92,66.45,1585542903.0,61.82600000000008,61.82600000000008,40.0,65.0,5.184000000000001
coronado,US,32.69,-117.18,1585542903.0,55.25600000000003,60.99799999999999,72.0,40.0,8.16
axim,GH,4.87,-2.24,1585542904.0,78.78199999999998,78.78199999999998,90.0,96.0,4.768
bageshwar,IN,29.85,79.77,1585542904.0,79.01600000000002,79.01600000000002,13.0,24.0,2.5600000000000005
mount isa,AU,-20.73,139.5,1585542904.0,94.99999999999994,94.99999999999994,26.0,40.0,7.359999999999999
cayenne,GF,4.93,-52.33,1585542905.0,76.99999999999994,76.99999999999994,94.0,100.0,1.6
bindura,ZW,-17.3,31.33,1585542905.0,67.42399999999992,67.42399999999992,60.0,46.0,1.4880000000000002
amga,RU,60.9,131.96,1585542906.0,29.822000000000003,29.822000000000003,92.0,100.0,4.304
bethel,US,41.37,-73.41,1585542906.0,44.27600000000007,48.00200000000001,93.0,90.0,7.359999999999999
eureka,US,40.8,-124.16,1585542906.0,51.079999999999984,51.99799999999999,76.0,90.0,5.760000000000001
castro,BR,-24.79,-50.01,1585542829.0,60.13399999999996,60.13399999999996,73.0,9.0,1.4880000000000002
port hardy,CA,50.7,-127.42,1585542907.0,42.799999999999955,42.799999999999955,81.0,90.0,13.12
necochea,AR,-38.55,-58.74,1585542907.0,61.69999999999999,62.00600000000003,90.0,40.0,2.8640000000000003
fulton,US,33.77,-84.45,1585542908.0,64.47200000000004,67.99999999999994,42.0,1.0,4.16
haikou,CN,20.05,110.34,1585542908.0,87.80000000000001,87.80000000000001,62.0,40.0,6.4
planaltina,BR,-15.45,-47.61,1585542908.0,66.73999999999995,69.80000000000001,83.0,73.0,4.16
yingcheng,CN,30.95,113.55,1585542909.0,49.99999999999994,49.99999999999994,66.0,90.0,3.2
piney green,US,34.72,-77.32,1585542909.0,69.63799999999998,73.99400000000009,73.0,1.0,9.120000000000001
iquitos,PE,-3.75,-73.25,1585542909.0,75.19999999999999,75.19999999999999,94.0,75.0,0.8
sur,OM,22.57,59.53,1585542910.0,81.96800000000002,81.96800000000002,48.0,53.0,14.448
chahal,GT,15.75,-89.57,1585542910.0,70.62799999999999,70.62799999999999,87.0,21.0,1.2800000000000002
gananoque,CA,44.33,-76.17,1585542871.0,46.52600000000007,48.19999999999993,70.0,1.0,13.92
hami,CN,42.8,93.45,1585542911.0,52.68199999999996,52.68199999999996,26.0,0.0,4.512
carpinteria,US,34.4,-119.52,1585542911.0,53.51000000000005,57.19999999999999,71.0,20.0,9.920000000000002
carballo,ES,43.21,-8.69,1585542911.0,45.78800000000001,48.99199999999996,65.0,40.0,9.120000000000001
asifabad,IN,19.37,79.28,1585542912.0,99.91400000000004,99.91400000000004,21.0,0.0,4.976
wanning,CN,18.8,110.4,1585542912.0,84.05599999999998,84.05599999999998,70.0,32.0,9.008000000000001
tarata,BO,-17.62,-66.02,1585542912.0,64.39999999999992,64.39999999999992,59.0,20.0,13.12
upernavik,GL,72.79,-56.15,1585542913.0,-3.0640000000000214,-3.0640000000000214,92.0,68.0,7.776000000000001
show low,US,34.25,-110.03,1585542913.0,40.38799999999998,46.39999999999998,38.0,1.0,7.359999999999999
stokmarknes,NO,68.56,14.91,1585542913.0,21.452000000000055,24.00799999999998,88.0,99.0,4.464
kinablangan,PH,7.69,126.55,1585542914.0,81.464,81.464,79.0,70.0,5.920000000000001
sokoni,TZ,-6.43,39.55,1585542914.0,77.50399999999996,78.80000000000001,88.0,40.0,8.928
ilulissat,GL,69.22,-51.1,1585542914.0,26.599999999999966,26.599999999999966,92.0,100.0,10.72
aleppo,SY,36.25,37.5,1585542915.0,54.93199999999996,54.93199999999996,65.0,33.0,13.264
buala,SB,-8.14,159.59,1585542915.0,82.29199999999997,82.29199999999997,77.0,92.0,2.0
atbasar,KZ,51.8,68.33,1585542916.0,27.77000000000004,27.77000000000004,92.0,0.0,5.392
bendigo,AU,-36.77,144.28,1585542659.0,71.54599999999999,75.00200000000001,40.0,83.0,6.56
ati,TD,13.22,18.34,1585542916.0,85.56800000000004,85.56800000000004,15.0,80.0,9.536
ayacucho,PE,-13.16,-74.22,1585542682.0,54.96800000000002,54.96800000000002,32.0,100.0,1.536
portree,GB,57.41,-6.19,1585542917.0,43.394000000000005,44.00599999999997,76.0,82.0,4.288
north bend,US,43.41,-124.22,1585542804.0,49.783999999999935,49.99999999999994,81.0,90.0,11.520000000000001
lagoa,PT,39.05,-27.98,1585542918.0,58.44199999999995,58.44199999999995,79.0,38.0,13.504
luanda,AO,-8.84,13.23,1585542626.0,78.80000000000001,78.80000000000001,83.0,75.0,4.16
kedgwick,CA,47.64,-67.34,1585542919.0,24.872000000000014,24.872000000000014,95.0,100.0,4.224
sao felix do xingu,BR,-6.64,-51.99,1585542919.0,71.81599999999997,71.81599999999997,91.0,64.0,1.552
goderich,CA,43.75,-81.72,1585542920.0,42.926000000000045,44.99599999999998,87.0,100.0,14.736000000000002
jacqueville,CI,5.21,-4.41,1585542920.0,79.03399999999993,79.03399999999993,89.0,92.0,4.4479999999999995
mineiros,BR,-17.57,-52.55,1585542635.0,66.38000000000005,66.38000000000005,74.0,74.0,2.256
laguna,US,38.42,-121.42,1585542679.0,52.59199999999993,55.994000000000085,71.0,75.0,4.16
kargil,IN,34.57,76.1,1585542921.0,25.123999999999967,25.123999999999967,23.0,95.0,2.4160000000000004
touros,BR,-5.2,-35.46,1585542922.0,76.99999999999994,76.99999999999994,94.0,40.0,2.4000000000000004
sungaipenuh,ID,-2.08,101.38,1585542922.0,77.14400000000006,77.14400000000006,57.0,100.0,2.144
arvika,SE,59.66,12.59,1585542922.0,27.464,28.994000000000028,68.0,7.0,6.56
alyangula,AU,-13.85,136.42,1585542923.0,91.39999999999992,91.39999999999992,59.0,40.0,4.960000000000001
dukat,RU,62.55,155.55,1585542923.0,11.389999999999986,11.389999999999986,85.0,38.0,3.5520000000000005
capao da canoa,BR,-29.75,-50.01,1585542924.0,72.35599999999994,72.35599999999994,83.0,0.0,4.256
san pedro,PH,14.35,121.02,1585542924.0,91.39999999999992,93.19999999999999,52.0,20.0,6.56
saint-francois,FR,46.42,3.91,1585542924.0,37.70599999999996,39.19999999999993,69.0,90.0,12.32
zyryanka,RU,65.75,150.85,1585542925.0,13.51400000000001,13.51400000000001,91.0,100.0,5.888000000000001
copiapo,CL,-27.37,-70.33,1585542925.0,60.80000000000001,60.80000000000001,82.0,79.0,1.6
kamaishi,JP,39.27,141.88,1585542926.0,51.799999999999955,51.799999999999955,25.0,100.0,6.56
tukrah,LY,32.53,20.58,1585542926.0,64.094,64.094,65.0,84.0,5.120000000000001
guerrero negro,MX,27.98,-114.06,1585542926.0,60.15199999999999,60.15199999999999,71.0,91.0,14.448
am timan,TD,11.03,20.28,1585542927.0,84.14600000000002,84.14600000000002,13.0,91.0,8.432
severo-kurilsk,RU,50.68,156.12,1585542928.0,33.49400000000003,33.49400000000003,87.0,0.0,4.832000000000001
marevo,RU,57.31,32.08,1585542784.0,29.173999999999978,29.173999999999978,80.0,100.0,7.888
knysna,ZA,-34.04,23.05,1585542929.0,51.799999999999955,51.799999999999955,93.0,0.0,2.4000000000000004
dauphin,CA,51.15,-100.05,1585542929.0,26.599999999999966,26.599999999999966,86.0,1.0,4.960000000000001
semnan,IR,35.57,53.4,1585542929.0,54.55400000000003,54.55400000000003,42.0,55.0,5.5680000000000005
grand gaube,MU,-20.01,57.66,1585542930.0,82.77800000000008,82.99400000000009,83.0,40.0,6.56
nalut,LY,30.33,10.85,1585542930.0,48.865999999999985,48.865999999999985,71.0,2.0,5.072
gravdal,NO,68.12,13.5,1585542930.0,29.749999999999943,29.749999999999943,88.0,86.0,5.408
teahupoo,PF,-17.83,-149.27,1585542931.0,85.99999999999994,85.99999999999994,70.0,100.0,4.16
oudtshoorn,ZA,-33.59,22.2,1585542931.0,51.799999999999955,51.799999999999955,93.0,0.0,2.4000000000000004
ivolginsk,RU,51.75,107.28,1585542931.0,35.599999999999966,35.599999999999966,40.0,75.0,11.200000000000001
faanui,PF,-16.48,-151.75,1585542931.0,82.97600000000006,82.97600000000006,80.0,15.0,10.304000000000002
andros town,BS,24.7,-77.77,1585542932.0,76.17199999999997,76.99999999999994,78.0,20.0,5.760000000000001
ormara,PK,25.21,64.64,1585542932.0,79.10599999999994,79.10599999999994,48.0,32.0,6.992000000000001
cheremushskiy,RU,61.27,47.26,1585542932.0,27.06800000000004,27.06800000000004,86.0,100.0,4.5920000000000005
padang,ID,-0.95,100.35,1585542696.0,84.21800000000002,84.21800000000002,72.0,86.0,2.5760000000000005
te anau,NZ,-45.42,167.72,1585542933.0,58.94599999999997,58.94599999999997,63.0,23.0,0.576
honiara,SB,-9.43,159.95,1585542661.0,85.99999999999994,85.99999999999994,79.0,40.0,4.960000000000001
kalispell,US,48.2,-114.31,1585542934.0,39.847999999999956,42.799999999999955,56.0,1.0,9.120000000000001
chaihe,CN,44.77,129.7,1585542934.0,55.32800000000003,55.32800000000003,34.0,0.0,9.744
butiama,TZ,-1.77,33.97,1585542934.0,67.99999999999994,67.99999999999994,94.0,20.0,3.4240000000000004
chapais,CA,49.78,-74.85,1585542935.0,31.999999999999943,31.999999999999943,86.0,90.0,13.92
okakarara,NA,-20.58,17.43,1585542935.0,66.70400000000001,66.70400000000001,55.0,81.0,4.688000000000001
marathon,US,44.9,-89.77,1585542932.0,35.97800000000001,37.99400000000003,77.0,90.0,9.120000000000001
mareeba,AU,-17.0,145.43,1585542936.0,79.41199999999998,82.39999999999992,78.0,75.0,12.32
olavarria,AR,-36.89,-60.32,1585542936.0,56.28199999999998,56.28199999999998,92.0,15.0,4.816
nanortalik,GL,60.14,-45.24,1585542937.0,36.91399999999999,36.91399999999999,94.0,100.0,9.440000000000001
leningradskiy,RU,69.38,178.42,1585542937.0,20.55200000000002,20.55200000000002,87.0,100.0,6.720000000000001
khudumelapye,BW,-23.88,24.75,1585542937.0,70.142,70.142,48.0,39.0,8.432
mozarlandia,BR,-14.74,-50.57,1585542938.0,73.29199999999997,73.29199999999997,80.0,91.0,2.7840000000000003
bokoro,TD,12.38,17.06,1585542938.0,87.62000000000006,87.62000000000006,16.0,19.0,5.184000000000001
iquique,CL,-20.22,-70.14,1585542939.0,66.19999999999999,66.19999999999999,72.0,81.0,4.16
camapua,BR,-19.53,-54.04,1585542940.0,71.56400000000002,71.56400000000002,76.0,9.0,2.2239999999999998
muswellbrook,AU,-32.27,150.9,1585542940.0,63.15799999999996,63.15799999999996,87.0,100.0,4.736
zalantun,CN,48.0,122.72,1585542941.0,53.22200000000004,53.22200000000004,34.0,94.0,4.912
maniitsoq,GL,65.42,-52.9,1585542941.0,20.588000000000022,20.588000000000022,96.0,100.0,5.328
conceicao do araguaia,BR,-8.26,-49.26,1585542941.0,73.97600000000006,73.97600000000006,89.0,94.0,2.048
ascension,US,30.22,-90.9,1585542942.0,69.26000000000005,75.19999999999999,46.0,1.0,4.16
portland,US,45.52,-122.68,1585542760.0,49.855999999999995,53.00600000000003,62.0,90.0,7.359999999999999
hamilton,US,39.18,-84.53,1585542942.0,56.156000000000006,57.991999999999905,43.0,1.0,7.359999999999999
iralaya,HN,15.0,-83.23,1585542943.0,77.34199999999993,77.34199999999993,84.0,4.0,7.920000000000001
kenai,US,60.55,-151.26,1585542943.0,29.137999999999977,30.00200000000001,46.0,1.0,11.520000000000001
lincoln,US,40.8,-96.67,1585542735.0,45.84199999999993,48.99199999999996,61.0,1.0,4.112
zhangjiakou,CN,40.81,114.88,1585542944.0,58.262,58.262,25.0,92.0,7.264
ferrol,ES,43.48,-8.24,1585542944.0,46.436000000000035,51.00799999999998,65.0,40.0,9.120000000000001
ancud,CL,-41.87,-73.82,1585542944.0,42.799999999999955,42.799999999999955,100.0,0.0,4.16
lebanon,US,36.21,-86.29,1585542824.0,56.19199999999995,60.99799999999999,54.0,1.0,3.3600000000000003
isangel,VU,-19.55,169.27,1585542945.0,78.80000000000001,78.80000000000001,94.0,90.0,9.136000000000001
cabo san lucas,MX,22.89,-109.91,1585542781.0,66.07400000000001,69.00799999999998,72.0,20.0,4.16
leiyang,CN,26.4,112.86,1585542946.0,53.815999999999974,53.815999999999974,75.0,100.0,3.2960000000000003
egvekinot,RU,66.32,-179.17,1585542906.0,3.1819999999999595,3.1819999999999595,83.0,100.0,2.9600000000000004
makakilo city,US,21.35,-158.09,1585542946.0,74.714,78.80000000000001,78.0,40.0,3.3600000000000003
marshall,US,34.38,-86.33,1585542947.0,60.06200000000007,62.599999999999966,42.0,1.0,4.960000000000001
umm lajj,SA,25.02,37.27,1585542693.0,78.7100000000001,78.7100000000001,31.0,2.0,7.856000000000001
tooele,US,40.53,-112.3,1585542824.0,41.82800000000003,46.39999999999998,100.0,40.0,4.16
faya,SA,18.39,42.45,1585542948.0,59.89999999999992,60.80000000000001,87.0,20.0,5.760000000000001
nampa,US,43.54,-116.56,1585542787.0,44.870000000000005,48.00200000000001,93.0,1.0,5.760000000000001
le chambon-feugerolles,FR,45.4,4.33,1585542949.0,35.85200000000003,39.19999999999993,77.0,90.0,3.3600000000000003
belyy yar,RU,53.6,91.39,1585542949.0,40.99999999999994,40.99999999999994,38.0,6.0,8.0
praya,CV,14.92,-23.51,1585542949.0,69.80000000000001,69.80000000000001,83.0,20.0,8.16
the valley,AI,18.22,-63.06,1585542844.0,76.99999999999994,76.99999999999994,69.0,20.0,9.120000000000001
san ramon de la nueva oran,AR,-23.13,-64.33,1585542950.0,75.00200000000001,75.00200000000001,95.0,63.0,1.2320000000000002
zhanaozen,KZ,43.3,52.8,1585542950.0,55.52600000000001,55.52600000000001,35.0,94.0,8.432
pinheiro machado,BR,-31.58,-53.38,1585542951.0,66.18199999999996,67.99999999999994,35.0,0.0,5.008
barabash,RU,43.2,131.48,1585542951.0,48.19999999999993,48.19999999999993,61.0,40.0,6.4
deputatskiy,RU,69.3,139.9,1585542951.0,1.976000000000056,1.976000000000056,85.0,100.0,4.768
sambava,MG,-14.27,50.17,1585542952.0,83.012,83.012,75.0,99.0,1.6480000000000001
sragen,ID,-7.43,111.02,1585542952.0,88.50200000000001,88.50200000000001,63.0,63.0,2.2079999999999997
lorengau,PG,-2.02,147.27,1585542952.0,82.00399999999996,82.00399999999996,81.0,85.0,7.4239999999999995
bambous virieux,MU,-20.34,57.76,1585542953.0,82.68800000000005,82.99400000000009,83.0,40.0,6.56
vila franca do campo,PT,37.72,-25.43,1585542953.0,57.19999999999999,57.19999999999999,82.0,40.0,6.56
jacareacanga,BR,-6.22,-57.75,1585542953.0,74.80400000000003,74.80400000000003,95.0,99.0,0.24
camacha,PT,33.08,-16.33,1585542954.0,60.80000000000001,60.80000000000001,82.0,40.0,4.960000000000001
wanaka,NZ,-44.7,169.15,1585542954.0,56.73200000000003,56.73200000000003,58.0,61.0,1.52
pimentel,PE,-6.84,-79.93,1585542954.0,73.166,73.166,83.0,87.0,6.704000000000001
machilipatnam,IN,16.17,81.13,1585542955.0,96.49400000000009,96.49400000000009,33.0,0.0,7.568000000000001
vila,PT,42.03,-8.16,1585542955.0,46.72399999999999,51.99799999999999,66.0,68.0,9.120000000000001
jasper,US,37.2,-94.35,1585542955.0,51.78199999999998,55.00399999999996,57.0,1.0,5.760000000000001
konskie,PL,51.19,20.41,1585542956.0,28.202000000000055,30.00200000000001,73.0,62.0,40.048
port moresby,PG,-9.44,147.18,1585542956.0,83.89400000000006,83.89400000000006,71.0,72.0,3.9200000000000004
hobyo,SO,5.35,48.53,1585542956.0,85.69400000000002,85.69400000000002,70.0,51.0,8.4
changping,CN,40.22,116.22,1585542957.0,64.63399999999996,69.99799999999999,41.0,81.0,3.2
eston,CA,51.15,-108.75,1585542957.0,38.605999999999995,39.19999999999993,57.0,90.0,2.4000000000000004
coahuayana,MX,18.73,-103.68,1585542958.0,72.93199999999996,72.93199999999996,65.0,0.0,1.3760000000000001
bumba,CD,2.18,22.47,1585542958.0,71.43800000000005,71.43800000000005,82.0,100.0,3.472
santa cruz cabralia,BR,-16.28,-39.02,1585542958.0,75.19999999999999,75.19999999999999,88.0,40.0,3.3600000000000003
antsla,EE,57.83,26.54,1585542959.0,17.599999999999966,17.599999999999966,78.0,0.0,2.4000000000000004
san ignacio,BZ,17.16,-89.07,1585542959.0,75.00200000000001,75.00200000000001,87.0,7.0,1.4240000000000002
ndele,CF,8.41,20.65,1585542959.0,79.66400000000004,79.66400000000004,48.0,100.0,4.352
angoche,MZ,-16.23,39.91,1585542960.0,78.83600000000007,78.83600000000007,70.0,9.0,6.5120000000000005
port lincoln,AU,-34.73,135.87,1585542960.0,67.49600000000004,67.49600000000004,55.0,23.0,7.216
matara,LK,5.95,80.54,1585542960.0,90.94999999999999,90.94999999999999,52.0,2.0,5.120000000000001
hovd,MN,48.01,91.64,1585542961.0,24.799999999999955,24.799999999999955,53.0,64.0,3.232
souillac,MU,-20.52,57.52,1585542961.0,82.67000000000002,82.99400000000009,83.0,40.0,6.56
novokruchininskiy,RU,51.78,113.77,1585542962.0,33.799999999999955,33.799999999999955,26.0,40.0,11.200000000000001
ust-nera,RU,64.57,143.2,1585542726.0,10.004000000000019,10.004000000000019,80.0,100.0,6.192
anloga,GH,5.79,0.9,1585542962.0,80.59999999999997,80.59999999999997,83.0,20.0,5.760000000000001
chipinge,ZW,-20.19,32.62,1585542962.0,69.38600000000002,69.38600000000002,48.0,3.0,0.30400000000000005
reshetylivka,UA,49.56,34.08,1585542963.0,50.557999999999936,50.557999999999936,61.0,77.0,5.104
kristinehamn,SE,59.31,14.11,1585542963.0,28.633999999999958,30.199999999999932,68.0,8.0,6.56
mitu,CO,1.2,-70.17,1585542964.0,72.77000000000004,72.77000000000004,93.0,100.0,1.4400000000000002
hearst,CA,49.68,-83.67,1585542459.0,33.67399999999998,33.67399999999998,90.0,100.0,10.08
pisco,PE,-13.7,-76.22,1585542964.0,71.34800000000001,71.59999999999997,83.0,96.0,4.16
cedar lake,US,41.36,-87.44,1585542965.0,44.74400000000003,46.39999999999998,75.0,90.0,11.520000000000001
oranjestad,AW,12.52,-70.03,1585542965.0,80.59999999999997,80.59999999999997,74.0,20.0,14.880000000000003
zapolyarnyy,RU,69.42,30.81,1585542965.0,15.799999999999955,15.799999999999955,85.0,20.0,18.080000000000002
alasehir,TR,38.35,28.52,1585542965.0,51.29599999999999,51.29599999999999,62.0,3.0,3.568
guayaramerin,BO,-10.84,-65.36,1585542966.0,73.18399999999991,73.18399999999991,93.0,82.0,1.2800000000000002
ca mau,VN,9.18,105.15,1585542966.0,95.19800000000004,95.19800000000004,40.0,51.0,4.896000000000001
bandar-e lengeh,IR,26.56,54.88,1585542966.0,73.39999999999992,73.39999999999992,83.0,7.0,8.16
orsha,BY,54.52,30.41,1585542967.0,30.199999999999932,30.199999999999932,86.0,90.0,8.0
methoni,GR,36.82,21.7,1585542967.0,49.01000000000005,53.00600000000003,93.0,37.0,4.08
areosa,PT,41.72,-8.86,1585542968.0,51.45799999999997,57.19999999999999,54.0,91.0,9.120000000000001
piacabucu,BR,-10.41,-36.43,1585542968.0,78.584,78.584,85.0,95.0,6.688
parkersburg,US,39.27,-81.56,1585542840.0,60.80000000000001,60.80000000000001,38.0,1.0,6.56
kirakira,SB,-10.45,161.92,1585542969.0,81.96800000000002,81.96800000000002,80.0,100.0,3.5200000000000005
jiaonan,CN,35.88,119.98,1585542970.0,57.19999999999999,57.19999999999999,45.0,83.0,6.4
shimoda,JP,34.67,138.95,1585542970.0,48.27199999999999,51.99799999999999,76.0,75.0,8.16
xai-xai,MZ,-25.05,33.64,1585542970.0,73.04000000000002,73.04000000000002,71.0,45.0,0.8480000000000001
forestville,US,38.85,-76.88,1585542951.0,53.29400000000004,55.994000000000085,100.0,90.0,3.3600000000000003
constantine,DZ,36.37,6.61,1585542971.0,40.99999999999994,40.99999999999994,93.0,75.0,1.6
boli,CN,45.77,130.52,1585542971.0,55.95799999999991,55.95799999999991,35.0,43.0,6.992000000000001
amuntai,ID,-2.42,115.25,1585542971.0,80.45599999999996,80.45599999999996,83.0,98.0,1.2160000000000002
sibolga,ID,1.74,98.78,1585542972.0,86.27000000000004,86.27000000000004,67.0,93.0,3.2479999999999998
bairiki,KI,1.33,172.98,1585542796.0,85.99999999999994,85.99999999999994,70.0,20.0,3.3600000000000003
ust-kuyga,RU,70.02,135.6,1585542972.0,8.491999999999962,8.491999999999962,90.0,92.0,3.5200000000000005
henties bay,NA,-22.12,14.28,1585542973.0,62.00600000000003,62.00600000000003,89.0,85.0,1.4240000000000002
devonport,AU,-41.17,146.35,1585542742.0,60.13399999999996,62.00600000000003,82.0,91.0,1.4240000000000002
san blas,MX,21.52,-105.27,1585542973.0,74.642,74.642,53.0,50.0,1.984
bagar,IN,28.19,75.5,1585542974.0,82.45400000000001,82.45400000000001,23.0,40.0,1.568
padilla,CO,3.22,-76.31,1585542974.0,75.19999999999999,75.19999999999999,64.0,75.0,5.760000000000001
candolim,IN,15.52,73.76,1585542974.0,84.19999999999999,84.19999999999999,74.0,20.0,4.960000000000001
chippewa falls,US,44.94,-91.39,1585542864.0,39.27199999999999,40.99999999999994,75.0,90.0,4.960000000000001
berlevag,NO,70.86,29.09,1585542975.0,22.999999999999943,22.999999999999943,67.0,40.0,16.48
monterey,US,36.25,-121.25,1585542975.0,52.26800000000003,55.39999999999992,76.0,75.0,4.960000000000001
bereda,ES,43.27,-7.54,1585542976.0,43.178,51.00799999999998,65.0,40.0,9.120000000000001
saint-leu,RE,-21.15,55.28,1585542976.0,78.38600000000002,82.39999999999992,69.0,20.0,2.4000000000000004
simao,CN,22.79,100.97,1585542976.0,91.57999999999998,91.57999999999998,12.0,0.0,5.728000000000001
noumea,NC,-22.28,166.46,1585542751.0,82.39999999999992,82.39999999999992,58.0,32.0,18.880000000000003
imamoglu,TR,37.27,35.66,1585542977.0,45.48199999999997,46.39999999999998,100.0,16.0,2.4000000000000004
ahipara,NZ,-35.17,173.17,1585542977.0,64.83199999999994,64.83199999999994,78.0,7.0,7.632
tommot,RU,58.96,126.29,1585542978.0,29.426000000000045,29.426000000000045,84.0,98.0,9.648000000000001
algiers,DZ,36.75,3.04,1585542924.0,42.799999999999955,42.799999999999955,100.0,20.0,3.808
kaeo,NZ,-35.1,173.78,1585542978.0,69.00799999999998,69.00799999999998,71.0,11.0,2.144
grand-santi,GF,4.25,-54.38,1585542979.0,73.68800000000005,73.68800000000005,95.0,100.0,1.552
maldonado,UY,-34.67,-54.92,1585542979.0,67.65799999999996,69.00799999999998,100.0,20.0,2.4000000000000004
constitucion,CL,-35.33,-72.42,1585542979.0,56.60599999999994,56.60599999999994,60.0,0.0,5.728000000000001
lata,PT,40.16,-8.33,1585542980.0,49.04599999999999,51.99799999999999,87.0,40.0,0.8
morada nova,BR,-5.11,-38.37,1585542980.0,75.54199999999997,75.54199999999997,90.0,98.0,2.2239999999999998
pangnirtung,CA,66.15,-65.71,1585542980.0,16.322000000000003,16.322000000000003,80.0,100.0,6.704000000000001
mama,RU,58.31,112.9,1585542981.0,29.173999999999978,29.173999999999978,88.0,100.0,11.888
pinawa,CA,50.15,-95.88,1585542981.0,29.083999999999946,29.083999999999946,95.0,75.0,3.2640000000000002
wewak,PG,-3.55,143.63,1585542981.0,85.37000000000006,85.37000000000006,71.0,100.0,11.584000000000001
yantal,RU,56.85,105.25,1585542982.0,32.25200000000001,32.25200000000001,80.0,99.0,10.176000000000002
acapulco,MX,16.86,-99.89,1585542982.0,78.80000000000001,78.80000000000001,83.0,5.0,1.6
presidencia roque saenz pena,AR,-26.79,-60.44,1585542983.0,72.73399999999998,72.73399999999998,83.0,10.0,3.4240000000000004
fort saint james,CA,54.43,-124.25,1585542983.0,16.430000000000007,16.430000000000007,88.0,100.0,6.32
richards bay,ZA,-28.78,32.04,1585542983.0,74.40799999999996,74.40799999999996,81.0,72.0,4.192
ternate,ID,0.8,127.4,1585542984.0,84.03799999999995,84.03799999999995,72.0,53.0,3.024
coffs harbour,AU,-30.3,153.13,1585542984.0,76.58600000000007,82.39999999999992,73.0,75.0,9.920000000000002
la ronge,CA,55.1,-105.28,1585542984.0,12.199999999999932,12.199999999999932,56.0,90.0,9.920000000000002
puerto penasco,MX,31.32,-113.53,1585542985.0,62.00600000000003,62.00600000000003,72.0,26.0,4.976
gazojak,TM,41.19,61.4,1585542985.0,65.22800000000001,65.22800000000001,35.0,95.0,12.272
mount gambier,AU,-37.83,140.77,1585542898.0,71.59999999999997,71.59999999999997,53.0,75.0,13.12
oswego,US,43.45,-76.15,1585542986.0,49.315999999999974,51.799999999999955,57.0,75.0,10.72
okha,RU,53.57,142.95,1585542724.0,32.27000000000004,32.27000000000004,91.0,65.0,10.352
kiunga,PG,-6.12,141.29,1585542986.0,84.488,84.488,70.0,90.0,0.7040000000000001
hengshan,CN,45.2,130.92,1585542987.0,54.22999999999996,54.22999999999996,36.0,18.0,9.232
marquard,ZA,-28.66,27.43,1585542987.0,63.62600000000003,63.62600000000003,41.0,5.0,5.024000000000001
roebourne,AU,-20.78,117.13,1585542988.0,99.21200000000005,99.21200000000005,24.0,0.0,6.784000000000001
lashio,MM,22.93,97.75,1585542988.0,99.22999999999996,99.22999999999996,14.0,0.0,3.44
okato,NZ,-39.2,173.88,1585542988.0,65.96599999999995,66.9919999999999,55.0,0.0,6.4319999999999995
shambu,ET,9.57,37.1,1585542989.0,70.07,70.07,15.0,6.0,2.0
panzhihua,CN,26.59,101.71,1585542989.0,73.00399999999996,73.00399999999996,35.0,18.0,8.959999999999999
lulea,SE,65.58,22.15,1585542989.0,12.199999999999932,12.199999999999932,72.0,0.0,6.56
siparia,TT,10.13,-61.5,1585542990.0,77.30599999999998,78.00799999999998,78.0,20.0,4.16
suluova,TR,40.83,35.65,1585542990.0,42.799999999999955,42.799999999999955,93.0,75.0,2.9760000000000004
santiago del estero,AR,-27.8,-64.26,1585542857.0,73.29199999999997,73.29199999999997,77.0,47.0,3.4560000000000004
acajutla,SV,13.59,-89.83,1585542991.0,69.99799999999999,69.99799999999999,97.0,53.0,4.800000000000001
evensk,RU,61.95,159.23,1585542991.0,17.168000000000063,17.168000000000063,94.0,93.0,5.888000000000001
willowmore,ZA,-33.29,23.49,1585542991.0,56.49799999999999,56.49799999999999,60.0,2.0,3.84
pochutla,MX,15.74,-96.47,1585542992.0,80.99600000000004,80.99600000000004,70.0,0.0,4.256
ambilobe,MG,-13.2,49.05,1585542992.0,84.81200000000007,84.81200000000007,75.0,56.0,0.46399999999999997
hundorp,NO,61.56,9.94,1585542992.0,15.99799999999999,15.99799999999999,82.0,19.0,2.4640000000000004
poyarkovo,RU,49.6,128.68,1585542992.0,48.70400000000001,48.70400000000001,47.0,96.0,8.72
malakal,SS,9.53,31.66,1585542993.0,87.45799999999991,87.45799999999991,11.0,12.0,7.4879999999999995
hokitika,NZ,-42.72,170.97,1585542993.0,60.78199999999998,60.78199999999998,70.0,38.0,1.152
jardim,BR,-21.48,-56.14,1585542994.0,71.79799999999994,71.79799999999994,87.0,0.0,2.352
biryusinsk,RU,55.96,97.82,1585542994.0,33.74599999999998,33.74599999999998,76.0,96.0,11.296
taga,RO,46.95,24.05,1585542994.0,36.60799999999995,37.39999999999998,73.0,18.0,3.3600000000000003
horasan,TR,40.05,42.17,1585542995.0,36.51800000000003,36.51800000000003,47.0,95.0,1.344
sharjah,AE,25.36,55.4,1585542778.0,76.85599999999994,78.80000000000001,73.0,18.0,16.48
muravlenko,RU,63.79,74.52,1585542995.0,29.623999999999967,29.623999999999967,96.0,100.0,9.376000000000001
nancha,CN,47.13,129.27,1585542996.0,54.77000000000004,54.77000000000004,35.0,97.0,4.048
magdalena,PH,14.2,121.43,1585542996.0,89.78000000000003,93.19999999999999,52.0,20.0,6.56
sechura,PE,-5.56,-80.82,1585542996.0,74.69599999999997,74.69599999999997,79.0,59.0,6.6080000000000005
luz,BR,-19.8,-45.69,1585542997.0,65.51600000000002,65.51600000000002,77.0,96.0,2.656
korem,ET,12.51,39.52,1585542997.0,62.22200000000004,62.22200000000004,33.0,2.0,4.112
haapiti,PF,-17.57,-149.87,1585542997.0,85.99999999999994,85.99999999999994,70.0,98.0,4.16
takoradi,GH,4.88,-1.76,1585542997.0,78.78199999999998,78.78199999999998,89.0,95.0,5.5200000000000005
lavrentiya,RU,65.58,-171.0,1585542998.0,5.66599999999994,5.66599999999994,92.0,12.0,2.2079999999999997
farmington,US,36.73,-108.22,1585542998.0,46.52600000000007,51.799999999999955,27.0,75.0,2.4000000000000004
requena,ES,39.49,-1.1,1585542998.0,51.06200000000001,55.994000000000085,76.0,20.0,2.4000000000000004
coihaique,CL,-45.58,-72.07,1585542999.0,37.39999999999998,37.39999999999998,93.0,11.0,1.6
seymchan,RU,62.88,152.43,1585542999.0,19.291999999999973,19.291999999999973,86.0,19.0,4.800000000000001
muli,MV,2.92,73.57,1585542999.0,83.31800000000004,83.31800000000004,61.0,53.0,1.904
medea,DZ,36.26,2.75,1585543000.0,42.799999999999955,42.799999999999955,100.0,20.0,3.2479999999999998
namatanai,PG,-3.67,152.43,1585543000.0,84.02000000000004,84.02000000000004,74.0,83.0,6.720000000000001
praia,CV,14.92,-23.51,1585543001.0,69.80000000000001,69.80000000000001,83.0,20.0,8.16
